City_ID,City,Lat,Lng,Max Temp,Humidity,Cloudiness,Wind Speed,Country,Date
0,port-aux-francais,-49.35,70.2167,275.98,82,99,15.16,TF,1726456809
1,albany,42.6001,-73.9662,293.59,70,39,1.81,US,1726456810
2,grytviken,-54.2811,-36.5092,270.82,89,99,6.29,GS,1726456811
3,nishinoomote,30.7333,131.0,303.46,84,40,5.66,JP,1726456812
4,yuzhno-kurilsk,44.0306,145.8556,291.45,57,1,5.71,RU,1726456813
5,kani keli,-12.9536,45.1033,296.74,73,9,0.18,YT,1726456815
6,green river,41.5286,-109.4662,291.47,39,10,2.81,US,1726456767
7,waitangi,-43.9535,-176.5597,284.16,87,70,0.89,NZ,1726456833
8,buon ma thuot,12.6667,108.05,296.76,96,99,1.25,VN,1726456834
9,namibe,-15.1961,12.1522,290.13,89,77,1.6,AO,1726456835
10,vanimo,-2.6741,141.3028,303.84,65,62,3.91,PG,1726456836
11,edinburgh of the seven seas,-37.0676,-12.3116,287.82,90,99,12.9,SH,1726456837
12,mahina,-17.5065,-149.489,299.02,83,75,3.6,PF,1726456838
13,papatowai,-46.5619,169.4708,282.52,58,100,3.1,NZ,1726456839
14,new norfolk,-42.7826,147.0587,286.44,44,73,3.85,AU,1726456840
15,blackmans bay,-43.0167,147.3167,285.78,58,82,1.79,AU,1726456842
16,levuka,50.1834,-105.4011,285.99,43,5,3.21,CA,1726456843
17,iqaluit,63.7506,-68.5145,277.0,86,75,8.75,CA,1726456565
18,bhongir,17.5108,78.8889,297.36,75,90,6.89,IN,1726456845
19,walvis bay,-22.9575,14.5053,282.68,93,14,3.6,NA,1726456847
20,jiangyou,31.7667,104.7167,301.26,71,77,2.54,CN,1726456848
21,okha,53.5739,142.9478,288.23,49,33,3.6,RU,1726456849
22,ushuaia,-54.8,-68.3,275.96,65,0,1.03,AR,1726456850
23,nadym,65.5333,72.5167,283.84,68,22,6.94,RU,1726456851
24,lerwick,60.1545,-1.1494,283.24,83,51,5.03,GB,1726456852
25,puerto natales,-51.7236,-72.4875,278.32,81,96,5.27,CL,1726456696
26,qaqortoq,60.7167,-46.0333,277.87,92,99,1.47,GL,1726456854
27,jamestown,42.097,-79.2353,291.95,86,0,1.54,US,1726456855
28,iskateley,67.6803,53.1512,287.41,75,99,3.17,RU,1726456856
29,akrehamn,59.2667,5.1833,284.29,93,20,1.54,NO,1726456857
30,ribeira grande,38.5167,-28.7,296.91,81,100,6.71,PT,1726456859
31,dalandzadgad,43.5708,104.425,291.06,31,0,5.57,MN,1726456860
32,bozuyuk,39.9078,30.0367,285.21,86,0,1.1,TR,1726456861
33,longyearbyen,78.2186,15.6401,277.06,100,75,3.09,SJ,1726456862
34,talnakh,69.4865,88.3972,277.39,76,100,4.54,RU,1726456864
35,punta arenas,-53.15,-70.9167,277.21,87,20,9.26,CL,1726456865
36,hithadhoo,-0.6,73.0833,301.79,76,100,4.57,MV,1726456866
37,sinabang,2.4803,96.3801,299.56,82,100,0.63,ID,1726456867
38,mar del plata,-38.0023,-57.5575,283.08,77,27,1.33,AR,1726456610
39,la palma,33.8464,-118.0467,293.64,79,75,5.14,US,1726456869
40,atafu village,-8.5421,-172.5159,301.38,76,54,3.36,TK,1726456870
41,adamstown,-25.066,-130.1015,293.42,85,100,6.95,PN,1726456871
42,west island,-12.1568,96.8225,301.14,74,20,7.2,CC,1726456872
43,lowestoft,52.4752,1.7516,287.05,94,100,0.45,GB,1726456873
44,saipan,15.1355,145.701,300.54,89,100,11.32,MP,1726456874
45,kapa'a,22.0752,-159.319,301.33,72,75,6.69,US,1726456875
46,masina,-4.3836,15.3914,296.34,71,67,2.3,CD,1726456876
47,georgetown,5.4112,100.3354,301.11,83,40,2.57,MY,1726456877
48,wellston,39.1234,-82.5329,288.09,52,0,2.87,US,1726456754
49,aasiaat,68.7098,-52.8699,271.45,94,100,1.45,GL,1726456879
50,luderitz,-26.6481,15.1594,284.6,75,0,8.25,NA,1726456880
51,margaret river,-33.95,115.0667,290.61,52,0,5.38,AU,1726456882
52,tiksi,71.6872,128.8694,274.64,84,100,12.12,RU,1726456883
53,bethel,41.3712,-73.414,288.67,87,0,1.54,US,1726456863
54,arteche,12.2645,125.4048,302.31,73,100,4.0,PH,1726456885
55,negrar,45.5288,10.938,288.38,63,75,2.06,IT,1726456886
56,rio claro,-22.4114,-47.5614,289.68,94,62,3.56,BR,1726456887
57,mount isa,-20.7333,139.5,303.02,20,0,7.2,AU,1726456888
58,kiffa,16.6166,-11.4045,304.93,52,34,0.68,MR,1726456889
59,sausset-les-pins,43.3314,5.1043,289.4,62,0,3.09,FR,1726456890
60,remire-montjoly,4.9167,-52.2667,299.17,94,0,1.54,GF,1726456891
61,santa marta,11.2408,-74.199,304.76,72,40,3.58,CO,1726456892
62,whitby,54.4877,-0.615,282.67,88,52,1.34,GB,1726456893
63,charlestown,-32.95,151.6667,293.43,31,0,0.89,AU,1726456894
64,yellowknife,62.456,-114.3525,284.49,90,40,4.63,CA,1726456895
65,bilibino,68.0546,166.4372,274.38,96,100,2.62,RU,1726456896
66,armacao de buzios,-22.7469,-41.8817,294.34,95,1,4.86,BR,1726456599
67,hawaiian paradise park,19.5933,-154.9731,298.09,96,98,0.45,US,1726456899
68,cidreira,-30.1811,-50.2056,288.6,86,91,3.54,BR,1726456900
69,mana,5.6592,-53.7767,299.05,85,19,5.31,GF,1726456901
70,hamilton,39.1834,-84.5333,295.98,53,0,0.45,US,1726456648
71,stanley,54.868,-1.6985,280.53,93,69,1.54,GB,1726456903
72,nagqu,31.5,92.0,283.58,56,57,3.13,CN,1726456904
73,faya-largeau,17.9257,19.1043,305.5,16,6,5.66,TD,1726456905
74,sao felix do xingu,-6.6447,-51.995,299.16,44,16,1.09,BR,1726456906
75,kirakira,-10.4544,161.9205,301.88,79,37,2.38,SB,1726456907
76,antanifotsy,-19.65,47.3167,282.79,81,0,0.09,MG,1726456908
77,puerto ayora,-0.7393,-90.3518,294.01,95,78,2.24,EC,1726456909
78,yur'yev-pol'skiy,56.5,39.6833,285.78,72,14,2.09,RU,1726456910
79,barclayville,4.6797,-8.2339,296.76,89,100,2.64,LR,1726456911
80,tazovsky,67.4667,78.7,282.51,70,95,6.55,RU,1726456912
81,aguada de pasajeros,22.385,-80.8508,299.0,88,74,1.3,CU,1726456913
82,magistral'nyy,56.1725,107.4458,278.87,53,100,4.35,RU,1726456914
83,burang,30.25,81.1667,281.36,63,15,1.96,CN,1726456915
84,bonthe,7.5264,-12.505,296.84,92,100,2.02,SL,1726456917
85,yamada,39.4667,141.95,294.12,65,84,3.2,JP,1726456918
86,nar'yan-mar,67.6713,53.087,287.37,75,98,3.2,RU,1726456919
87,sivrihisar,39.4504,31.5341,286.55,78,0,2.98,TR,1726456692
88,nemuro,43.3236,145.575,290.16,68,1,1.48,JP,1726456922
89,tolanaro,-25.0319,46.9987,291.19,94,0,2.06,MG,1726456923
90,suciu de sus,47.4333,24.0333,283.09,97,100,0.84,RO,1726456924
91,kogalym,62.2654,74.4791,280.46,58,100,3.16,RU,1726456925
92,lavras,-21.2453,-44.9997,291.57,48,7,2.85,BR,1726456685
93,martinho campos,-19.3317,-45.2369,294.9,43,1,1.22,BR,1726456927
94,taulaga,-11.0553,-171.0883,301.08,78,98,5.64,AS,1726456929
95,port augusta,-32.5,137.7667,292.12,26,0,4.86,AU,1726456930
96,ta`u,-14.2336,-169.5144,299.78,80,32,5.29,AS,1726456932
97,hermanus,-34.4187,19.2345,284.15,66,98,2.02,ZA,1726456933
98,saint-joseph,-21.3667,55.6167,292.36,68,38,5.49,RE,1726456934
99,uturoa,-16.7333,-151.4333,299.28,78,40,3.36,PF,1726456935
100,kapuskasing,49.4169,-82.4331,294.2,83,20,3.09,CA,1726456936
101,ust-nera,64.5667,143.2,278.35,60,83,1.34,RU,1726456937
102,igrim,63.1906,64.4162,284.96,79,1,2.88,RU,1726456939
103,constantia,44.1833,28.65,285.76,93,64,6.31,RO,1726456803
104,ta'izz,13.5,44.0,296.08,62,90,1.17,YE,1726456941
105,college,64.8569,-147.8028,284.12,76,75,2.57,US,1726456942
106,gadzhiyevo,69.2551,33.3362,282.82,98,100,1.51,RU,1726456943
107,st. john's,47.5649,-52.7093,281.79,85,40,1.79,CA,1726456715
108,port lincoln,-34.7333,135.8667,286.08,61,7,5.23,AU,1726456945
109,xiva,41.3783,60.3639,291.89,29,30,2.82,UZ,1726456946
110,ilulissat,69.2167,-51.1,271.54,87,100,2.13,GL,1726456947
111,seredyna-buda,52.189,34.0364,286.11,46,4,4.19,UA,1726456949
112,lubang,13.8584,120.124,301.91,77,100,4.17,PH,1726456950
113,anadyr,64.75,177.4833,282.43,66,0,2.0,RU,1726456951
114,kodiak,57.79,-152.4072,286.88,51,75,2.06,US,1726456952
115,thompson,55.7435,-97.8558,287.24,67,0,3.09,CA,1726456953
116,isafjordur,66.0755,-23.124,275.93,69,100,2.31,IS,1726456955
117,keflavik,64.0049,-22.5624,277.39,75,0,3.6,IS,1726456956
118,praia da vitoria,38.7333,-27.0667,296.35,78,20,4.05,PT,1726456957
119,badger,64.8,-147.5333,284.29,84,75,2.57,US,1726456958
120,mabaruma,8.2,-59.7833,298.09,91,0,0.79,GY,1726456959
121,lakeway,30.3638,-97.9796,301.09,63,75,4.12,US,1726456960
122,berezovyy,51.6667,135.7,290.11,50,100,2.61,RU,1726456961
123,huarmey,-10.0681,-78.1522,290.0,86,93,3.12,PE,1726456962
124,zharkent,44.1628,80.0,292.93,28,65,3.27,KZ,1726456729
125,el haouaria,37.05,11.0144,293.16,61,75,9.04,TN,1726456964
126,mount pearl,47.5166,-52.7813,281.33,90,41,0.89,CA,1726456965
127,ajdabiya,30.7554,20.2263,295.98,64,0,2.21,LY,1726456967
128,mandalgovi,45.7625,106.2708,285.53,38,0,2.25,MN,1726456968
129,altay,47.8667,88.1167,285.38,41,2,1.4,CN,1726456623
130,kokopo,-4.352,152.2633,302.19,71,58,3.13,PG,1726456970
131,aban,56.67,96.06,277.46,75,100,1.94,RU,1726456971
132,enewetak,11.3474,162.3373,301.81,80,100,7.36,MH,1726456972
133,tamanrasset,22.785,5.5228,294.1,73,0,2.06,DZ,1726456973
134,ouadda,8.0777,22.4007,292.88,99,100,1.93,CF,1726456974
135,kralendijk,12.15,-68.2667,303.14,74,20,7.72,BQ,1726456774
136,prado,-17.3411,-39.2208,296.45,81,70,4.74,BR,1726456976
137,wailua homesteads,22.0669,-159.378,300.59,75,75,6.69,US,1726456977
138,cururupu,-1.8283,-44.8683,298.05,81,12,2.1,BR,1726456978
139,puerto aysen,-45.4,-72.7,277.96,100,100,2.43,CL,1726456979
140,thinadhoo,0.5333,72.9333,301.76,75,94,4.3,MV,1726456980
141,barreirinhas,-2.7469,-42.8264,298.63,82,30,4.97,BR,1726456981
142,angra dos reis,-23.0067,-44.3181,293.42,92,69,0.86,BR,1726456945
143,cabedelo,-6.9811,-34.8339,295.52,75,26,7.47,BR,1726456983
144,olonkinbyen,70.9221,-8.7187,275.77,96,100,10.75,SJ,1726456984
145,callao,-12.0667,-77.15,290.22,82,100,2.06,PE,1726456897
146,whitehorse,60.7161,-135.0538,287.58,47,40,8.23,CA,1726456987
147,verkhnevilyuysk,63.4453,120.3167,279.81,55,7,2.19,RU,1726456988
148,minas de marcona,-15.2119,-75.1103,283.9,87,59,4.56,PE,1726456989
149,cabo san lucas,22.8909,-109.9124,298.57,87,0,6.17,MX,1726456870
150,chibougamau,49.9168,-74.3659,289.94,82,20,3.09,CA,1726456991
151,la passe,45.5549,-0.8967,285.08,65,55,4.26,FR,1726456992
152,sisimiut,66.9395,-53.6735,275.65,88,93,2.95,GL,1726456993
153,lebu,-37.6167,-73.65,280.98,91,51,5.07,CL,1726456994
154,kalifornsky,60.4183,-151.29,285.52,74,0,11.32,US,1726456995
155,fort st. john,56.2499,-120.8529,286.09,54,75,5.66,CA,1726456996
156,port saint john's,-31.6229,29.5448,291.36,89,57,2.18,ZA,1726456997
157,ust'-ilimsk,58.0006,102.6619,274.78,94,100,2.86,RU,1726456998
158,general jose de san martin,-26.5374,-59.3416,287.41,61,0,2.64,AR,1726456999
159,kuta,-8.7233,115.1723,299.12,78,100,1.54,ID,1726456966
160,antsiranana,-12.2787,49.2917,294.57,64,20,7.2,MG,1726457002
161,mahebourg,-20.4081,57.7,294.31,64,40,5.66,MU,1726457004
162,nouadhibou,20.931,-17.0347,294.14,88,4,4.63,MR,1726457005
163,klyuchi,52.2667,79.1667,278.98,58,0,7.07,RU,1726457007
164,bandarbeyla,9.4942,50.8122,298.16,69,33,9.74,SO,1726457008
165,vrangel',42.7297,133.0839,291.16,62,100,3.15,RU,1726457009
166,shimoda,34.6667,138.95,301.49,80,70,1.05,JP,1726457010
167,elva,58.2225,26.4211,289.23,100,100,3.6,EE,1726457011
168,ancud,-41.8697,-73.8203,279.74,87,1,1.0,CL,1726457013
169,afonso bezerra,-5.4983,-36.5056,297.01,66,5,9.04,BR,1726457014
170,batang,-6.4846,110.7083,304.86,45,84,1.31,ID,1726457015
171,pontianak,-0.0333,109.3333,303.14,84,20,2.57,ID,1726457016
172,sechura,-5.5569,-80.8222,290.37,83,9,5.82,PE,1726457017
173,belyy yar,53.6039,91.3903,278.09,75,0,6.0,RU,1726457018
174,roberval,48.5168,-72.2324,293.5,68,75,3.6,CA,1726456859
175,manokwari,-0.8667,134.0833,301.7,73,24,2.63,ID,1726457021
176,igarka,67.4667,86.5833,279.54,53,100,4.85,RU,1726457022
177,hotan,37.0997,79.9269,296.54,23,82,3.59,CN,1726457023
178,merizo village,13.2658,144.6691,299.46,94,100,14.51,GU,1726457024
179,lensk,60.7253,114.9278,277.39,77,100,3.88,RU,1726457025
180,hadibu,12.65,54.0333,298.31,80,48,7.86,YE,1726457026
181,vila velha,-20.3297,-40.2925,296.45,89,0,3.58,BR,1726456917
182,turkmenbasy,40.0222,52.9552,286.58,62,0,2.06,TM,1726457028
183,hounde,11.5,-3.5167,296.06,94,100,2.26,BF,1726457029
184,cill airne,52.05,-9.5167,283.42,90,61,1.38,IE,1726457030
185,nybro,56.7446,15.9071,282.6,88,98,2.86,SE,1726457031
186,falun,60.6036,15.626,280.13,98,42,0.45,SE,1726456806
187,dauphin,51.1494,-100.0502,289.23,67,0,3.09,CA,1726457033
188,la foa,-21.7108,165.8276,294.36,53,100,6.25,NC,1726457034
189,antofagasta,-23.65,-70.4,286.75,70,10,1.52,CL,1726456909
190,invercargill,-46.4,168.35,282.6,74,100,4.92,NZ,1726457038
191,dumas,35.8656,-101.9732,299.23,27,0,3.09,US,1726457039
192,singrauli,24.1997,82.6753,299.18,79,94,6.65,IN,1726457040
193,kabalo,-6.05,26.9167,296.9,33,9,1.21,CD,1726457041
194,forster,-32.1667,152.5167,294.47,36,0,3.96,AU,1726457042
195,port elizabeth,-33.918,25.5701,288.31,94,75,4.63,ZA,1726456883
196,udachny,66.4167,112.4,275.56,73,100,5.09,RU,1726457044
197,mao,39.8885,4.2658,291.46,63,0,4.63,ES,1726457045
198,tomatlan,19.9333,-105.25,299.05,93,100,0.49,MX,1726457046
199,island harbour,50.724,-1.2758,287.6,67,100,2.2,GB,1726457047
200,jamjamal,35.5365,44.8317,297.47,33,0,1.28,IQ,1726457048
201,nehe,48.4833,124.8333,294.26,38,100,8.67,CN,1726457049
202,essaouira,31.5125,-9.77,293.87,88,2,2.06,MA,1726457050
203,mount pleasant,32.7941,-79.8626,296.14,87,100,6.17,US,1726457008
204,northam,51.0333,-4.2167,287.38,97,100,1.23,GB,1726457052
205,christchurch,-43.5333,172.6333,286.11,61,20,5.36,NZ,1726457053
206,nadi,-17.8,177.4167,301.15,69,40,5.66,FJ,1726457054
207,hede,33.7681,120.2517,300.66,87,100,9.04,CN,1726457055
208,mount gambier,-37.8333,140.7667,285.44,61,99,4.49,AU,1726457058
209,arraial do cabo,-22.9661,-42.0278,294.7,93,2,5.29,BR,1726457059
210,port mathurin,-19.6833,63.4167,293.9,71,50,11.36,MU,1726457060
211,okakarara,-20.5833,17.4333,292.92,10,86,2.99,NA,1726456874
212,givet,50.138,4.8255,283.25,94,75,1.03,FR,1726457062
213,thal,35.4791,72.2439,287.19,49,0,1.09,PK,1726457063
214,la libertad,-2.2333,-80.9,293.9,84,100,4.42,EC,1726456950
215,valle hermoso,25.6667,-97.8333,301.58,75,100,2.68,MX,1726456824
216,ibarreta,-25.2144,-59.8585,288.92,51,0,2.38,AR,1726457066
217,daru,-9.0763,143.2092,298.54,89,100,7.03,PG,1726457067
218,tofol,5.3248,163.0078,304.03,79,75,2.57,FM,1726457068
219,bila tserkva,49.8094,30.1121,292.2,35,100,8.58,UA,1726457069
220,altrip,49.4356,8.4947,284.39,89,75,1.54,DE,1726457070
221,codrington,-38.2667,141.9667,285.26,76,100,7.89,AU,1726457072
222,gizo,-8.103,156.8419,301.41,76,30,1.43,SB,1726457074
223,vytegra,61.0064,36.4481,286.85,74,27,2.18,RU,1726457075
224,olyokminsk,60.3736,120.4264,281.18,50,97,4.23,RU,1726457076
225,kermit,31.8576,-103.0927,300.06,32,0,4.63,US,1726457077
226,howard springs,-12.497,131.047,307.58,56,93,2.08,AU,1726457078
227,i-n-salah,27.1935,2.4607,306.14,18,0,3.99,DZ,1726457079
228,den burg,53.0542,4.7972,289.14,88,100,0.51,NL,1726457080
229,vadso,70.0744,29.7487,283.24,93,75,3.09,NO,1726457081
230,tadine,-21.55,167.8833,295.58,55,17,6.8,NC,1726457082
231,chonchi,-42.6128,-73.8092,276.57,96,10,1.11,CL,1726457083
232,alappuzha,9.49,76.3264,300.1,83,53,2.89,IN,1726457084
233,muranovo,56.1833,37.9,285.5,67,9,1.96,RU,1726457085
234,floro,61.5996,5.0328,283.13,93,11,2.06,NO,1726456959
235,kuqa,41.7278,82.9364,297.19,28,45,2.87,CN,1726457087
236,lihue,21.9789,-159.3672,300.92,71,75,6.69,US,1726457088
237,durbuy,50.35,5.4667,285.43,88,100,0.8,BE,1726457089
238,key west,24.5557,-81.7826,304.15,84,0,2.06,US,1726456818
239,hami,42.8,93.45,295.91,18,2,1.28,CN,1726457091
240,uaua,-9.8414,-39.4817,293.83,77,0,6.74,BR,1726457093
241,dryden,49.7833,-92.7503,295.31,83,75,3.6,CA,1726457094
242,kegen,43.0197,79.2203,286.77,46,4,1.66,KZ,1726457095
243,alindao,5.0267,21.2088,293.6,98,100,1.46,CF,1726457096
244,karratha,-20.7377,116.8463,303.34,16,1,10.03,AU,1726457097
245,petauke,-14.2426,31.3253,292.59,40,1,1.82,ZM,1726457098
246,hegang,47.4,130.3667,290.31,51,100,2.75,CN,1726457099
247,nova sintra,14.8667,-24.7167,299.51,80,92,4.75,CV,1726457101
248,port douglas,-16.4833,145.4667,296.77,79,99,8.08,AU,1726457102
249,vorgashor,67.5833,63.95,286.12,97,99,4.54,RU,1726457103
250,jardim do serido,-6.5844,-36.7744,296.13,68,0,10.27,BR,1726457104
251,chelno-vershiny,54.4333,51.1,286.16,79,0,3.0,RU,1726457105
252,fale old settlement,-9.3852,-171.2468,301.4,77,100,4.88,TK,1726457106
253,tuy hoa,13.0833,109.3,303.9,63,97,6.8,VN,1726457107
254,dakhla,23.6848,-15.958,292.86,92,0,6.57,EH,1726457110
255,oriximina,-1.7656,-55.8661,300.59,53,0,2.0,BR,1726457111
256,anaco,9.4389,-64.4728,301.25,65,96,2.13,VE,1726456843
257,golyshmanovo,56.3979,68.3728,279.9,69,2,3.02,RU,1726457113
258,ciudad lazaro cardenas,17.9583,-102.2,301.08,83,100,0.68,MX,1726457114
259,dunedin,-45.8742,170.5036,281.4,72,29,0.53,NZ,1726457115
260,mzuzu,-11.4656,34.0207,288.7,52,0,1.37,MW,1726457116
261,ploneour-lanvern,47.9,-4.2833,285.33,82,0,2.06,FR,1726457118
262,kayangel,8.0823,134.7173,301.93,78,100,11.5,PW,1726457053
263,riviere-du-loup,47.8304,-69.5342,293.3,77,99,2.06,CA,1726457120
264,kuandian,40.7286,124.7847,292.87,88,100,1.1,CN,1726457121
265,lagos,6.5833,3.75,297.32,94,92,2.46,NG,1726456599
266,flagstaff,35.1981,-111.6513,291.49,41,0,4.12,US,1726456892
267,mejit,10.2753,170.8646,301.35,75,100,3.16,MH,1726457125
268,urupes,-21.2017,-49.29,293.91,48,4,4.43,BR,1726457127
269,tarrafal de sao nicolau,16.5667,-24.3667,298.57,72,37,2.32,CV,1726457128
270,bredasdorp,-34.5322,20.0403,283.98,70,78,1.85,ZA,1726457129
271,twentynine palms,34.1356,-116.0542,301.23,38,0,3.83,US,1726456934
272,utrik,11.2278,169.8474,301.86,75,100,4.14,MH,1726456872
273,geraldton,-28.7667,114.6,296.38,33,0,8.75,AU,1726457132
274,gambiran satu,-8.3939,114.1464,304.27,42,99,3.35,ID,1726457133
275,petropavlovsk-kamchatsky,53.0452,158.6483,286.48,41,75,9.0,RU,1726456898
276,solleftea,63.1667,17.2667,276.07,92,19,1.76,SE,1726457135
277,aral,40.5156,81.2636,297.29,26,12,2.16,CN,1726457136
278,salinopolis,-0.6136,-47.3561,299.62,80,41,5.5,BR,1726457137
279,boyolangu,-8.1181,111.8935,301.86,55,61,4.39,ID,1726457138
280,stornoway,58.2093,-6.3865,281.13,93,100,1.03,GB,1726457139
281,mirny,62.5353,113.9611,277.31,56,6,2.92,RU,1726457140
282,luziania,-16.2525,-47.9503,294.59,30,0,2.85,BR,1726457141
283,alofi,-19.0595,-169.9187,300.09,74,38,4.12,NU,1726457142
284,brookings,44.3114,-96.7984,295.47,80,0,3.6,US,1726457143
285,qamdo,31.1667,97.2333,286.82,58,53,2.37,CN,1726457144
286,yabelo,4.8833,38.0833,288.78,62,96,5.04,ET,1726457147
287,tura,25.5198,90.2201,299.49,81,100,1.24,IN,1726457148
288,lauro de freitas,-12.8944,-38.3272,297.16,78,20,4.12,BR,1726457149
289,sal rei,16.1833,-22.9167,298.36,80,97,4.12,CV,1726457150
290,smithers,54.7804,-127.1743,284.33,76,100,4.63,CA,1726457151
291,sanctuary point,-35.1114,150.629,287.88,36,3,5.33,AU,1726457152
292,florence,43.7667,11.25,287.71,92,0,1.03,IT,1726457153
293,raja,8.4596,25.678,293.47,97,16,1.8,SS,1726457116
294,coahuayana de hidalgo,18.7,-103.6583,299.42,93,100,1.25,MX,1726457155
295,portland,45.5234,-122.6762,289.63,77,35,1.34,US,1726457009
296,kargil,34.5667,76.1,280.77,44,1,1.44,IN,1726457157
297,konde,-4.95,39.75,295.99,84,16,3.01,TZ,1726457158
298,fomboni,-12.28,43.7425,298.55,73,5,2.42,KM,1726457160
299,boca suno,-0.7167,-77.1333,298.31,66,89,1.32,EC,1726457162
300,piton saint-leu,-21.2196,55.3151,291.21,52,0,4.12,RE,1726457163
301,inhambane,-23.865,35.3833,296.22,94,19,4.19,MZ,1726457164
302,recreo,-29.2818,-65.061,289.05,30,0,4.66,AR,1726457165
303,pionki,51.476,21.4499,288.9,96,99,2.57,PL,1726457166
304,el granada,37.5027,-122.4694,289.03,85,40,9.77,US,1726457167
305,puerto baquerizo moreno,-0.9,-89.6,294.34,87,100,5.17,EC,1726457168
306,veracruz,19.3333,-96.6667,296.72,99,92,0.26,MX,1726456861
307,ceelbuur,4.685,46.6176,296.35,81,7,6.82,SO,1726457170
308,zhezqazghan,47.7833,67.7667,286.47,67,0,10.0,KZ,1726457171
309,vilyuchinsk,52.9306,158.4028,287.3,62,15,8.42,RU,1726457172
310,rio preto da eva,-2.6994,-59.6997,303.99,34,18,2.04,BR,1726457173
311,holualoa,19.6228,-155.9522,301.39,74,20,4.12,US,1726457174
312,port moresby,-9.4431,147.1797,301.83,74,40,5.14,PG,1726457175
313,hobyo,5.3505,48.5268,297.5,84,14,8.47,SO,1726457176
314,vetluzhskiy,58.3902,45.4654,286.33,73,100,0.7,RU,1726457177
315,barcelos,41.5388,-8.6151,291.31,27,0,3.18,PT,1726457180
316,kingston,17.997,-76.7936,303.68,74,20,2.06,JM,1726457181
317,porto velho,-8.7619,-63.9039,300.18,74,0,1.54,BR,1726457158
318,lichuan,30.3,108.85,298.42,61,54,1.73,CN,1726457184
319,pitimbu,-7.4706,-34.8086,298.08,72,65,6.87,BR,1726457185
320,indiana,40.0003,-86.2503,293.46,56,2,3.65,US,1726457186
321,cambria,35.5641,-121.0808,287.07,90,91,1.79,US,1726457187
322,escalquens,43.5174,1.5589,283.99,68,60,4.28,FR,1726457188
323,prince albert,53.2001,-105.7677,285.12,82,20,2.06,CA,1726457189
324,kalininsk,51.5,44.4758,287.17,72,14,3.65,RU,1726457190
325,caleta de carquin,-11.0925,-77.6267,289.55,84,23,3.35,PE,1726457191
326,revda,56.801,59.9303,283.71,94,22,1.36,RU,1726457192
327,yermentau,51.6214,73.1069,278.91,71,2,7.14,KZ,1726457193
328,saint-philippe,-21.3585,55.7679,292.85,70,48,6.28,RE,1726457194
329,cestos city,5.46,-9.5828,297.78,87,100,4.21,LR,1726457195
330,kourou,5.1552,-52.6478,298.76,87,27,3.23,GF,1726457196
331,porto novo,6.4965,2.6036,299.05,92,100,3.34,BJ,1726457198
332,kulhudhuffushi,6.6221,73.07,301.03,78,6,4.87,MV,1726457199
333,mgandu,-5.95,34.1333,288.14,61,4,3.37,TZ,1726457200
334,veraval,20.9,70.3667,300.84,68,55,2.54,IN,1726457201
335,touros,-5.1989,-35.4608,298.2,76,5,7.32,BR,1726457202
336,mokhsogollokh,61.4681,128.9203,281.75,40,6,1.35,RU,1726457203
337,east london,-33.0153,27.9116,288.67,67,0,3.6,ZA,1726457204
338,prince rupert,54.3161,-130.3201,285.2,99,100,7.72,CA,1726457013
339,sunzha,43.3211,45.0522,284.86,86,1,1.85,RU,1726457206
340,kununurra,-15.7667,128.7333,308.14,24,22,5.66,AU,1726457124
341,totness,5.8833,-56.3167,300.13,79,10,4.33,SR,1726457208
342,volkhov,59.9258,32.3382,286.03,90,29,0.2,RU,1726456913
343,maumere,-8.6199,122.2111,301.85,57,84,0.72,ID,1726457210
344,coquimbo,-29.9533,-71.3436,285.36,82,0,3.09,CL,1726456946
345,balkanabat,39.5108,54.3671,293.15,38,0,1.48,TM,1726457212
346,haiku-pauwela,20.9219,-156.3051,302.13,62,20,10.73,US,1726457213
347,akureyri,65.6835,-18.0878,271.11,93,40,0.51,IS,1726457214
348,dudinka,69.4058,86.1778,279.36,68,94,7.88,RU,1726457215
349,westport,41.1415,-73.3579,291.34,81,0,0.45,US,1726457216
350,nuuk,64.1835,-51.7216,276.49,100,100,2.06,GL,1726457218
351,funafuti,-8.5243,179.1942,304.15,79,40,1.03,TV,1726457219
352,de aar,-30.6497,24.0123,283.11,81,0,4.51,ZA,1726457220
353,timimoun,29.2639,0.231,304.05,37,36,7.45,DZ,1726457221
354,neyriz,29.1988,54.3278,294.03,35,1,1.86,IR,1726457222
355,coxim,-18.5067,-54.76,298.41,60,2,4.29,BR,1726457223
356,filingue,14.3521,3.3168,301.26,71,42,4.07,NE,1726457224
357,quang ngai,15.1167,108.8,305.17,61,100,2.55,VN,1726457225
358,ar ruways,24.1103,52.7306,303.68,51,0,4.93,AE,1726457226
359,kabinda,-6.1333,24.4833,294.98,35,1,0.57,CD,1726457227
360,khamharia,20.9833,82.2667,295.77,92,100,4.36,IN,1726457228
361,shingu,33.7333,135.9833,303.19,67,3,2.64,JP,1726457229
362,novyy urengoy,66.0833,76.6333,281.97,57,95,6.03,RU,1726457230
363,urzhar,47.093,81.6294,291.64,31,8,3.24,KZ,1726457231
364,torbali,38.1519,27.3622,286.72,67,0,1.31,TR,1726457232
365,conception bay south,47.4999,-52.9981,281.66,89,29,3.39,CA,1726457233
366,tsiombe,-25.3,45.4833,292.42,71,6,0.57,MG,1726457234
367,campbell river,50.0163,-125.2446,287.29,87,20,0.0,CA,1726457235
368,mili,6.0815,171.735,301.01,70,71,0.97,MH,1726457236
369,cidade velha,14.9167,-23.6167,298.41,83,20,3.6,CV,1726457238
370,oodweyne,9.4092,45.064,296.26,45,31,8.28,SO,1726457239
371,tazacorte,28.629,-17.9293,294.69,64,100,3.6,ES,1726457240
372,kupang,-10.1667,123.5833,305.47,45,20,4.63,ID,1726457119
373,happy valley-goose bay,53.3168,-60.3315,283.32,87,40,2.06,CA,1726457242
374,fort bragg,35.139,-79.006,295.83,87,75,4.63,US,1726457244
375,selfoss,63.9331,-20.9971,275.4,67,100,3.5,IS,1726457246
376,xinqing,48.2333,129.5,290.17,53,100,3.09,CN,1726457247
377,sukhobezvodnoye,57.0491,44.8891,286.33,68,100,1.69,RU,1726457248
378,montes claros,-16.735,-43.8617,295.03,43,0,1.03,BR,1726457056
379,quellon,-43.1167,-73.6167,278.39,93,44,2.41,CL,1726457250
380,saldanha,-33.0117,17.9442,282.18,80,47,8.21,ZA,1726457251
381,haute-goulaine,47.1991,-1.4294,282.16,93,0,1.54,FR,1726457252
382,ketchikan,55.3422,-131.6461,285.8,94,100,7.2,US,1726457253
383,al jawf,29.5,38.75,294.41,60,0,4.18,SA,1726457255
384,weno,7.4515,151.8468,304.12,79,100,3.09,FM,1726457256
385,itupiranga,-5.1347,-49.3267,299.7,50,78,1.03,BR,1726457257
386,caldwell,43.6629,-116.6874,292.03,49,0,11.32,US,1726457258
387,la'ie,21.6477,-157.9253,301.81,75,63,1.79,US,1726457259
388,lazaro cardenas,17.9583,-102.2,301.08,83,100,0.68,MX,1726457261
389,ulladulla,-35.35,150.4667,286.54,38,2,3.05,AU,1726457262
390,yacimiento rio turbio,-51.5732,-72.3508,272.92,90,82,3.78,AR,1726457263
391,san luis de la loma,17.2706,-100.8939,300.5,82,100,1.47,MX,1726457264
392,cape canaveral,28.4058,-80.6048,300.39,89,40,0.45,US,1726457265
393,wagrowiec,52.8084,17.1996,287.81,98,100,3.83,PL,1726457266
394,pisco,-13.7,-76.2167,290.18,82,100,1.54,PE,1726457267
395,parapat,2.663,98.9349,297.53,70,87,3.8,ID,1726457268
396,juan diaz covarrubias,18.1628,-95.2069,299.35,89,98,1.76,MX,1726457269
397,yangambi,0.8102,24.4336,293.64,99,77,1.23,CD,1726457270
398,maputo,-25.9653,32.5892,293.97,94,40,2.57,MZ,1726457126
399,alta,69.9689,23.2717,276.74,75,13,1.54,NO,1726457273
400,souillac,-20.5167,57.5167,294.36,64,40,5.66,MU,1726457274
401,brisas de zicatela,15.8369,-97.0419,301.34,82,100,1.76,MX,1726457275
402,sao jose da coroa grande,-8.8978,-35.1478,297.05,80,80,5.57,BR,1726457276
403,san antonio de pale,-1.4014,5.6325,297.41,87,35,4.68,GQ,1726457277
404,al hoceima,35.2433,-3.9309,293.72,78,40,1.03,MA,1726457278
405,pointe-noire,-4.7761,11.8635,297.01,89,79,2.56,CG,1726457279
406,alotau,-10.3069,150.4462,298.43,94,100,2.68,PG,1726457281
407,tchintabaraden,15.8969,5.7985,303.7,56,12,5.01,NE,1726457282
408,kyzyl-suu,42.3414,78.0056,288.73,47,0,2.06,KG,1726457283
409,susuman,62.7833,148.1667,276.04,58,100,3.1,RU,1726457284
410,acajutla,13.5928,-89.8275,301.27,80,100,2.62,SV,1726457285
411,akashi,34.6333,134.9833,304.15,64,26,2.41,JP,1726457286
412,wanganui,-39.9333,175.05,285.64,77,100,5.62,NZ,1726457287
413,pacific grove,36.6177,-121.9166,289.21,89,40,4.63,US,1726457288
414,grand falls-windsor,48.9332,-55.6649,281.76,88,78,2.49,CA,1726457286
415,luwuk,-0.9516,122.7875,299.59,71,100,2.97,ID,1726457291
416,saudarkrokur,65.7461,-19.6394,274.53,80,95,2.23,IS,1726457292
417,avarua,-21.2078,-159.775,298.18,65,20,7.2,CK,1726457293
418,labuan,5.2767,115.2417,304.35,79,40,2.57,MY,1726457294
419,helena valley west central,46.6629,-112.0604,289.4,59,98,0.89,US,1726457295
420,el calafate,-50.3408,-72.2768,275.44,84,23,2.13,AR,1726457296
421,prieska,-29.6641,22.7474,281.32,50,0,1.0,ZA,1726457297
422,fisterra,42.9049,-9.2629,291.71,54,46,7.38,ES,1726457298
423,lorengau,-2.0226,147.2712,302.04,77,67,4.03,PG,1726457299
424,springbok,-29.6643,17.8865,279.86,60,0,1.87,ZA,1726457300
425,urangan,-25.3,152.9,292.87,58,26,10.39,AU,1726457301
426,camargo,27.6667,-105.1667,298.99,55,100,5.43,MX,1726457302
427,taltal,-25.4,-70.4833,291.92,50,0,1.57,CL,1726457303
428,pangoa,-12.1167,-73.0,296.02,70,34,1.06,PE,1726457304
429,wenatchee,47.4235,-120.3103,293.69,49,90,1.75,US,1726457305
430,tbeng meanchey,13.8167,104.9667,300.17,86,100,2.31,KH,1726457306
431,amungan,15.3652,119.9582,301.0,82,100,4.33,PH,1726457307
432,islamkot,24.6997,70.177,299.9,70,0,5.28,PK,1726457310
433,batu gajah,4.4692,101.0411,302.2,79,20,1.54,MY,1726457311
434,arica,-18.475,-70.3042,289.28,72,100,2.06,CL,1726457312
435,hirado,33.3597,129.5531,302.32,79,8,2.01,JP,1726457313
436,onega,63.9061,38.1404,286.76,74,84,2.12,RU,1726457314
437,abrego,8.0807,-73.2205,291.56,81,9,3.21,CO,1726457315
438,woolgoolga,-30.1106,153.2007,293.67,45,1,5.29,AU,1726457316
439,brokopondo,4.75,-55.1667,299.4,77,20,4.41,SR,1726457317
440,paracuru,-3.41,-39.0306,299.17,74,48,6.97,BR,1726457318
441,broome,42.2506,-75.833,292.62,92,92,1.26,US,1726457319
442,shenjiamen,29.9576,122.298,300.58,84,100,8.53,CN,1726457320
443,piti village,13.4626,144.6933,300.18,96,100,8.23,GU,1726457321
444,santa terezinha,-29.9002,-50.0904,288.09,87,99,3.16,BR,1726457322
445,okhotsk,59.3833,143.3,285.11,54,100,2.67,RU,1726457323
446,san pedro,14.35,121.0167,303.72,81,75,4.63,PH,1726457324
447,ordubad,38.9059,46.0234,287.54,55,56,4.01,AZ,1726457325
448,rio verde,21.9333,-99.9833,295.79,91,95,2.88,MX,1726457326
449,ust'-kulom,61.6864,53.6902,287.52,96,94,1.23,RU,1726457328
450,saurimo,-9.6608,20.3916,290.91,36,20,0.43,AO,1726457329
451,santiago de veraguas,8.1,-80.9833,300.71,91,100,1.73,PA,1726457330
452,isna,25.2934,32.554,301.54,40,0,4.74,EG,1726457331
453,cabinda,-5.55,12.2,296.95,88,95,2.34,AO,1726457332
454,dazhong,33.1997,120.4578,301.13,89,99,9.44,CN,1726457333
455,olinda,-8.0089,-34.8553,299.0,73,20,4.63,BR,1726457119
456,lospalos,-8.5186,127.0025,303.08,47,41,3.97,TL,1726457335
457,juneau,58.3019,-134.4197,285.15,95,100,8.23,US,1726457228
458,dampit,-8.2116,112.7493,303.37,40,50,3.19,ID,1726457337
459,moree,-29.4667,149.85,292.95,28,0,5.69,AU,1726457338
460,mil'kovo,55.6078,37.7956,289.61,51,10,2.21,RU,1726457339
461,ipatovo,45.7181,42.9036,288.38,57,0,6.99,RU,1726457340
462,nicoya,10.1483,-85.452,298.38,92,100,0.32,CR,1726457341
463,tacarigua,10.0862,-67.9198,296.17,88,95,1.54,VE,1726457342
464,hasaki,35.7333,140.8333,299.09,87,100,8.46,JP,1726457343
465,katsina,12.9894,7.6006,297.95,75,40,3.95,NG,1726457344
466,sitangkai,4.6628,119.3928,301.74,77,100,9.39,PH,1726457346
467,labrador city,52.9463,-66.9114,292.1,72,100,5.14,CA,1726457348
468,baiyin,36.5583,104.2081,287.71,82,100,0.59,CN,1726457349
469,zinjibar,13.1287,45.3807,303.02,79,54,5.63,YE,1726457350
470,galliano,29.4422,-90.2992,298.15,88,100,0.0,US,1726457351
471,turinsk,58.0458,63.696,280.69,66,3,1.4,RU,1726457352
472,vila franca do campo,37.7167,-25.4333,295.38,77,17,3.16,PT,1726457353
473,shixing,24.9482,114.0657,303.65,73,31,2.01,CN,1726457354
474,zastron,-30.3023,27.084,282.7,69,40,1.19,ZA,1726457355
475,alice springs,-23.7,133.8833,288.9,20,94,8.66,AU,1726457356
476,novocherkassk,47.4181,40.0939,290.16,45,0,7.0,RU,1726457357
477,mingshui,36.7167,117.5,298.3,50,0,2.55,CN,1726457359
478,nova vicosa,-17.8919,-39.3719,295.78,86,100,3.57,BR,1726457360
479,ad dawadimi,24.5077,44.3924,298.79,24,0,1.21,SA,1726457361
480,magadan,59.5667,150.8,283.07,57,37,0.31,RU,1726457363
481,olenino,56.2092,33.4889,284.34,56,26,2.3,RU,1726457364
482,balashikha,55.8094,37.9581,285.96,100,7,1.91,RU,1726457365
483,peniche,39.3558,-9.3811,289.51,75,0,3.14,PT,1726457366
484,santiago de cao,-7.9589,-79.2392,289.22,88,8,3.09,PE,1726457367
485,santa cruz,-17.8,-63.1667,288.85,94,40,2.06,BO,1726456941
486,taoudenni,22.6783,-3.9836,306.66,25,41,2.32,ML,1726457369
487,sona,45.4388,10.8255,288.66,63,75,2.06,IT,1726457371
488,canico,32.6333,-16.85,296.5,87,40,5.66,PT,1726457372
489,polyarnyy,69.1989,33.4478,282.8,98,100,1.95,RU,1726457373
490,telimele,10.9167,-13.3333,294.43,99,100,1.69,GN,1726457374
491,thanh hoa,19.8,105.7667,304.62,63,14,1.73,VN,1726457375
492,trincomalee,8.5711,81.2335,302.84,69,73,9.02,LK,1726457105
493,arkhangel'sk,64.5401,40.5433,287.21,77,40,3.0,RU,1726457379
494,bairnsdale,-37.8333,147.6167,287.07,75,100,2.24,AU,1726457380
495,sosnovo-ozerskoye,52.5249,111.5418,282.97,44,8,7.34,RU,1726457381
496,xilin hot,43.9667,116.0333,290.44,56,5,4.65,CN,1726457382
497,flying fish cove,-10.4217,105.6791,300.97,74,75,4.63,CX,1726457383
498,bikenibeu village,1.3673,173.1241,305.13,66,20,3.09,KI,1726457384
499,horta,38.5333,-28.6333,296.49,82,100,7.15,PT,1726457385
500,arvayheer,46.2639,102.775,283.56,38,18,5.46,MN,1726457386
501,luanda,-8.8368,13.2343,294.15,94,75,0.0,AO,1726457388
502,bodaybo,57.8506,114.1933,280.18,78,100,2.39,RU,1726457389
503,birmitrapur,22.4,84.7667,297.61,88,100,6.2,IN,1726457390
504,priozersk,61.0393,30.1291,285.42,100,58,1.91,RU,1726457391
505,torghay,49.6339,63.4981,288.09,75,4,6.95,KZ,1726457392
506,carnarvon,-24.8667,113.6333,298.96,28,0,8.37,AU,1726457393
507,nova olimpia,-14.7972,-57.2881,298.22,53,0,1.64,BR,1726457394
508,bizerte,37.2744,9.8739,295.15,64,40,4.12,TN,1726457396
509,kerikeri,-35.2268,173.9474,286.43,89,100,1.79,NZ,1726457397
510,lompoc,34.6391,-120.4579,289.83,83,100,5.14,US,1726457398
511,alamosa,37.4695,-105.87,285.14,54,0,3.09,US,1726457399
512,yoloten,37.2989,62.3597,295.32,17,85,0.97,TM,1726457400
513,freeport,40.6576,-73.5832,292.13,74,20,1.54,US,1726457401
514,port alfred,-33.5906,26.891,287.72,86,14,5.13,ZA,1726457402
515,muiden,52.3305,5.067,287.03,89,99,1.21,NL,1726457403
516,savanna-la-mar,18.219,-78.1332,300.33,90,91,0.36,JM,1726457404
517,palmer,42.1584,-72.3287,289.22,71,0,0.96,US,1726457405
518,gobabis,-22.45,18.9667,289.95,20,80,0.9,NA,1726457406
519,makushino,55.2103,67.2442,282.71,63,1,4.06,RU,1726457407
520,aykhal,66.0,111.5,274.15,79,100,4.28,RU,1726457408
521,kudymkar,59.0173,54.656,287.72,78,13,1.13,RU,1726457409
522,greymouth,-42.4667,171.2,283.82,57,21,3.15,NZ,1726457410
523,skikda,36.8762,6.9092,291.88,69,0,2.71,DZ,1726457411
524,labytnangi,66.6572,66.4183,290.07,80,61,4.55,RU,1726457412
525,mermoz boabab,14.7065,-17.4758,299.03,94,20,2.06,SN,1726457414
526,sathyamangalam,11.5167,77.25,304.41,45,41,1.29,IN,1726457415
527,illizi,26.4833,8.4667,303.77,36,18,4.77,DZ,1726457416
528,lianzhou,24.7811,112.3825,302.83,75,43,2.83,CN,1726457417
529,conde,-7.2597,-34.9075,294.85,94,20,2.57,BR,1726457418
530,xapuri,-10.6517,-68.5044,298.69,48,13,2.15,BR,1726457420
531,kailua-kona,19.6406,-155.9956,303.13,66,20,4.12,US,1726457421
532,vikulovo,56.8167,70.6107,281.69,64,6,2.57,RU,1726457422
533,yeniseysk,58.4497,92.1703,279.82,55,61,2.27,RU,1726457423
534,kidal,18.4411,1.4078,302.41,53,99,1.43,ML,1726457424
535,san ramon,37.7799,-121.978,288.94,80,100,7.2,US,1726457425
536,yuzhno-sakhalinsk,46.9581,142.7337,292.94,45,35,6.0,RU,1726457426
537,nizhnesortymskiy,62.4397,71.7603,281.46,53,76,4.18,RU,1726457427
538,lata,40.1629,-8.3327,287.82,26,0,2.22,PT,1726457428
539,maymana,35.9214,64.7836,295.71,20,97,2.2,AF,1726457431
540,talhar,24.8833,68.8167,302.42,61,10,7.1,PK,1726457432
541,norrtalje,59.758,18.705,280.46,77,67,1.32,SE,1726457433
542,kwang binh,17.4833,106.6,303.84,67,19,4.22,VN,1726457434
543,hsinchu,24.8036,120.9686,307.22,64,92,0.89,TW,1726457435
544,two rivers,44.1539,-87.5693,292.02,98,100,0.45,US,1726457210
545,ramadi,33.4226,43.3058,301.51,37,0,4.93,IQ,1726457437
546,sao joao da barra,-21.6403,-41.0511,295.72,91,7,6.84,BR,1726457438
547,nantucket,41.2835,-70.0995,289.34,88,0,3.09,US,1726457208
548,mont-dore,-22.2833,166.5833,293.84,60,79,6.56,NC,1726457440
549,ceerigaabo,10.6162,47.368,292.33,49,86,7.24,SO,1726457441
550,danja,11.3764,7.5625,294.32,94,42,2.6,NG,1726457442
551,mangrol,21.1167,70.1167,301.59,61,78,3.9,IN,1726457444
552,jacmel,18.2342,-72.5347,300.49,85,47,1.86,HT,1726457445
553,hinton,53.4001,-117.5857,281.58,79,20,1.48,CA,1726457446
554,mucumpiz,8.4167,-71.1333,286.79,94,85,1.36,VE,1726457447
555,gargalianoi,37.0667,21.6333,292.1,61,10,4.37,GR,1726457448
556,sungai penuh,-2.0833,101.3833,296.74,71,33,2.62,ID,1726457335
557,tandil,-37.3217,-59.1332,279.07,54,0,2.47,AR,1726457442
558,ocampo,21.65,-101.5,288.71,87,63,2.18,MX,1726457451
